{
  "type": "FeatureCollection",
  "features": [
    {
      "type": "Feature",
      "geometry": {
        "type": "Point",
        "coordinates": [11.2562, 43.7788, 0]
      },
      "properties": {
        "name": "Donata Patrussi",
        "description": {
          "@type": "html",
          "value": "Antiques, run by Donata — a true art enthusiast. A charming store with character and curated treasures."
        },
        "category": "boutique"
      }
    },
    {
      "type": "Feature",
      "geometry": {
        "type": "Point",
        "coordinates": [11.2518, 43.7665, 0]
      },
      "properties": {
        "name": "Gem",
        "description": {
          "@type": "html",
          "value": "Jewelry shop next to Ponte Vecchio, run by Sandra — great prices and beautiful pieces."
        },
        "category": "boutique"
      }
    },
    {
      "type": "Feature",
      "geometry": {
        "type": "Point",
        "coordinates": [11.2542, 43.7712, 0]
      },
      "properties": {
        "name": "Montgomery",
        "description": {
          "@type": "html",
          "value": "Clothing boutique run by Matteo and his father — unique selection with strong Florentine identity."
        },
        "category": "boutique"
      }
    },
    {
      "type": "Feature",
      "geometry": {
        "type": "Point",
        "coordinates": [11.2528, 43.7682, 0]
      },
      "properties": {
        "name": "Boutique Nadine",
        "description": {
          "@type": "html",
          "value": "Curated clothing and accessories with a great vintage selection — beautifully arranged, stylish and unique."
        },
        "category": "boutique"
      }
    },
    {
      "type": "Feature",
      "geometry": {
        "type": "Point",
        "coordinates": [11.2602, 43.7692, 0]
      },
      "properties": {
        "name": "Studioteca",
        "description": {
          "@type": "html",
          "value": "A beautifully curated store featuring Italian and Florentine craftsmanship — modern and refined."
        },
        "category": "boutique"
      }
    },
    {
      "type": "Feature",
      "geometry": {
        "type": "Point",
        "coordinates": [11.2512, 43.7732, 0]
      },
      "properties": {
        "name": "Studioteca Emporio",
        "description": {
          "@type": "html",
          "value": "Home accessories and decor curated by Matteo — cozy, stylish and full of character."
        },
        "category": "boutique"
      }
    }
  ]
}
